<?xml version="1.0" encoding="UTF-8"?>
<kml xmlns="http://www.opengis.net/kml/2.2">
  <Document>
    <name>MYJAVSKÁ OBLASŤ - miesta</name>
    <Style id="icon-1739-01579B-nodesc-normal">
      <IconStyle>
        <color>ff9b5701</color>
        <scale>1</scale>
        <Icon>
          <href>http://www.gstatic.com/mapspro/images/stock/503-wht-blank_maps.png</href>
        </Icon>
      </IconStyle>
      <LabelStyle>
        <scale>0</scale>
      </LabelStyle>
      <BalloonStyle>
        <text><![CDATA[<h3>$[name]</h3>]]></text>
      </BalloonStyle>
    </Style>
    <Style id="icon-1739-01579B-nodesc-highlight">
      <IconStyle>
        <color>ff9b5701</color>
        <scale>1</scale>
        <Icon>
          <href>http://www.gstatic.com/mapspro/images/stock/503-wht-blank_maps.png</href>
        </Icon>
      </IconStyle>
      <LabelStyle>
        <scale>1</scale>
      </LabelStyle>
      <BalloonStyle>
        <text><![CDATA[<h3>$[name]</h3>]]></text>
      </BalloonStyle>
    </Style>
    <StyleMap id="icon-1739-01579B-nodesc">
      <Pair>
        <key>normal</key>
        <styleUrl>#icon-1739-01579B-nodesc-normal</styleUrl>
      </Pair>
      <Pair>
        <key>highlight</key>
        <styleUrl>#icon-1739-01579B-nodesc-highlight</styleUrl>
      </Pair>
    </StyleMap>
    <Style id="icon-1739-0288D1-nodesc-normal">
      <IconStyle>
        <color>ffd18802</color>
        <scale>1</scale>
        <Icon>
          <href>http://www.gstatic.com/mapspro/images/stock/503-wht-blank_maps.png</href>
        </Icon>
      </IconStyle>
      <LabelStyle>
        <scale>0</scale>
      </LabelStyle>
      <BalloonStyle>
        <text><![CDATA[<h3>$[name]</h3>]]></text>
      </BalloonStyle>
    </Style>
    <Style id="icon-1739-0288D1-nodesc-highlight">
      <IconStyle>
        <color>ffd18802</color>
        <scale>1</scale>
        <Icon>
          <href>http://www.gstatic.com/mapspro/images/stock/503-wht-blank_maps.png</href>
        </Icon>
      </IconStyle>
      <LabelStyle>
        <scale>1</scale>
      </LabelStyle>
      <BalloonStyle>
        <text><![CDATA[<h3>$[name]</h3>]]></text>
      </BalloonStyle>
    </Style>
    <StyleMap id="icon-1739-0288D1-nodesc">
      <Pair>
        <key>normal</key>
        <styleUrl>#icon-1739-0288D1-nodesc-normal</styleUrl>
      </Pair>
      <Pair>
        <key>highlight</key>
        <styleUrl>#icon-1739-0288D1-nodesc-highlight</styleUrl>
      </Pair>
    </StyleMap>
    <Placemark>
      <name>Chvojnica...</name>
      <styleUrl>#icon-1739-01579B-nodesc</styleUrl>
      <Point>
        <coordinates>
          17.409096,48.799619,0
        </coordinates>
      </Point>
    </Placemark>
    <Placemark>
      <name>...Lubina</name>
      <styleUrl>#icon-1739-01579B-nodesc</styleUrl>
      <Point>
        <coordinates>
          17.735763,48.784622,0
        </coordinates>
      </Point>
    </Placemark>
    <Placemark>
      <name>Bzince p/J</name>
      <styleUrl>#icon-1739-01579B-nodesc</styleUrl>
      <Point>
        <coordinates>
          17.770954,48.787223,0
        </coordinates>
      </Point>
    </Placemark>
    <Placemark>
      <name>Višňové</name>
      <styleUrl>#icon-1739-01579B-nodesc</styleUrl>
      <Point>
        <coordinates>
          17.751212,48.725928,0
        </coordinates>
      </Point>
    </Placemark>
    <Placemark>
      <name>Hrachovište</name>
      <styleUrl>#icon-1739-01579B-nodesc</styleUrl>
      <Point>
        <coordinates>
          17.728038,48.714036,0
        </coordinates>
      </Point>
    </Placemark>
    <Placemark>
      <name>Krajné</name>
      <styleUrl>#icon-1739-01579B-nodesc</styleUrl>
      <Point>
        <coordinates>
          17.685567,48.703108,0
        </coordinates>
      </Point>
    </Placemark>
    <Placemark>
      <name>Prašník</name>
      <styleUrl>#icon-1739-01579B-nodesc</styleUrl>
      <Point>
        <coordinates>
          17.687455,48.651875,0
        </coordinates>
      </Point>
    </Placemark>
    <Placemark>
      <name>Košariská</name>
      <styleUrl>#icon-1739-01579B-nodesc</styleUrl>
      <Point>
        <coordinates>
          17.598019,48.67081,0
        </coordinates>
      </Point>
    </Placemark>
    <Placemark>
      <name>Brezová p/B</name>
      <styleUrl>#icon-1739-01579B-nodesc</styleUrl>
      <Point>
        <coordinates>
          17.537574,48.665128,0
        </coordinates>
      </Point>
    </Placemark>
    <Placemark>
      <name>Bukovec</name>
      <styleUrl>#icon-1739-01579B-nodesc</styleUrl>
      <Point>
        <coordinates>
          17.498114,48.699221,0
        </coordinates>
      </Point>
    </Placemark>
    <Placemark>
      <name>Podbranč</name>
      <styleUrl>#icon-1739-01579B-nodesc</styleUrl>
      <Point>
        <coordinates>
          17.443182,48.729123,0
        </coordinates>
      </Point>
    </Placemark>
    <Placemark>
      <name>Sobotište</name>
      <styleUrl>#icon-1739-01579B-nodesc</styleUrl>
      <Point>
        <coordinates>
          17.404043,48.731614,0
        </coordinates>
      </Point>
    </Placemark>
    <Placemark>
      <name>Myjava</name>
      <styleUrl>#icon-1739-0288D1-nodesc</styleUrl>
      <Point>
        <coordinates>
          17.5674635,48.7552968,0
        </coordinates>
      </Point>
    </Placemark>
    <Placemark>
      <name>Senica</name>
      <styleUrl>#icon-1739-0288D1-nodesc</styleUrl>
      <Point>
        <coordinates>
          17.3610002,48.6798645,0
        </coordinates>
      </Point>
    </Placemark>
  </Document>
</kml>
