<?xml version="1.0" encoding="UTF-8"?>
<kml xmlns="http://www.opengis.net/kml/2.2">
  <Document>
    <name>ZEMPLÍN - miesta</name>
    <Style id="icon-1899-0288D1-nodesc-normal">
      <IconStyle>
        <color>ffd18802</color>
        <scale>1</scale>
        <Icon>
          <href>http://www.gstatic.com/mapspro/images/stock/503-wht-blank_maps.png</href>
        </Icon>
        <hotSpot x="32" xunits="pixels" y="64" yunits="insetPixels"/>
      </IconStyle>
      <LabelStyle>
        <scale>0</scale>
      </LabelStyle>
      <BalloonStyle>
        <text><![CDATA[<h3>$[name]</h3>]]></text>
      </BalloonStyle>
    </Style>
    <Style id="icon-1899-0288D1-nodesc-highlight">
      <IconStyle>
        <color>ffd18802</color>
        <scale>1</scale>
        <Icon>
          <href>http://www.gstatic.com/mapspro/images/stock/503-wht-blank_maps.png</href>
        </Icon>
        <hotSpot x="32" xunits="pixels" y="64" yunits="insetPixels"/>
      </IconStyle>
      <LabelStyle>
        <scale>1</scale>
      </LabelStyle>
      <BalloonStyle>
        <text><![CDATA[<h3>$[name]</h3>]]></text>
      </BalloonStyle>
    </Style>
    <StyleMap id="icon-1899-0288D1-nodesc">
      <Pair>
        <key>normal</key>
        <styleUrl>#icon-1899-0288D1-nodesc-normal</styleUrl>
      </Pair>
      <Pair>
        <key>highlight</key>
        <styleUrl>#icon-1899-0288D1-nodesc-highlight</styleUrl>
      </Pair>
    </StyleMap>
    <Placemark>
      <name>Parchovany</name>
      <styleUrl>#icon-1899-0288D1-nodesc</styleUrl>
      <Point>
        <coordinates>
          21.7141695,48.7521583,0
        </coordinates>
      </Point>
    </Placemark>
    <Placemark>
      <name>Zámutov</name>
      <styleUrl>#icon-1899-0288D1-nodesc</styleUrl>
      <Point>
        <coordinates>
          21.5523422,48.899984,0
        </coordinates>
      </Point>
    </Placemark>
    <Placemark>
      <name>Dlhé Klčovo</name>
      <styleUrl>#icon-1899-0288D1-nodesc</styleUrl>
      <Point>
        <coordinates>
          21.7385489000001,48.8111745,0
        </coordinates>
      </Point>
    </Placemark>
    <Placemark>
      <name>Pozdišovce</name>
      <styleUrl>#icon-1899-0288D1-nodesc</styleUrl>
      <Point>
        <coordinates>
          21.8592996,48.7263094,0
        </coordinates>
      </Point>
    </Placemark>
    <Placemark>
      <name>Kamenica nad Cirochou</name>
      <styleUrl>#icon-1899-0288D1-nodesc</styleUrl>
      <Point>
        <coordinates>
          21.9986214,48.9300636,0
        </coordinates>
      </Point>
    </Placemark>
    <Placemark>
      <name>Pusté Čemerné</name>
      <styleUrl>#icon-1899-0288D1-nodesc</styleUrl>
      <Point>
        <coordinates>
          21.8169616,48.8409189,0
        </coordinates>
      </Point>
    </Placemark>
    <Placemark>
      <name>Rakovec nad Ondavou</name>
      <styleUrl>#icon-1899-0288D1-nodesc</styleUrl>
      <Point>
        <coordinates>
          21.7829862999999,48.7703238,0
        </coordinates>
      </Point>
    </Placemark>
    <Placemark>
      <name>Dlhé nad Cirochou</name>
      <styleUrl>#icon-1899-0288D1-nodesc</styleUrl>
      <Point>
        <coordinates>
          22.0651546,48.96236,0
        </coordinates>
      </Point>
    </Placemark>
    <Placemark>
      <name>Cejkov</name>
      <styleUrl>#icon-1899-0288D1-nodesc</styleUrl>
      <Point>
        <coordinates>
          21.7622517,48.4680339,0
        </coordinates>
      </Point>
    </Placemark>
    <Placemark>
      <name>Čičava</name>
      <styleUrl>#icon-1899-0288D1-nodesc</styleUrl>
      <Point>
        <coordinates>
          21.6653866,48.9237359,0
        </coordinates>
      </Point>
    </Placemark>
    <Placemark>
      <name>Malčice</name>
      <styleUrl>#icon-1899-0288D1-nodesc</styleUrl>
      <Point>
        <coordinates>
          21.8530018,48.5765453,0
        </coordinates>
      </Point>
    </Placemark>
    <Placemark>
      <name>Michalok</name>
      <styleUrl>#icon-1899-0288D1-nodesc</styleUrl>
      <Point>
        <coordinates>
          21.6326266999999,48.9907511,0
        </coordinates>
      </Point>
    </Placemark>
    <Placemark>
      <name>Nižný Hrušov</name>
      <styleUrl>#icon-1899-0288D1-nodesc</styleUrl>
      <Point>
        <coordinates>
          21.7726541,48.8073315,0
        </coordinates>
      </Point>
    </Placemark>
    <Placemark>
      <name>Ostrov</name>
      <styleUrl>#icon-1899-0288D1-nodesc</styleUrl>
      <Point>
        <coordinates>
          22.1642757,48.7177877,0
        </coordinates>
      </Point>
    </Placemark>
    <Placemark>
      <name>Čaklov</name>
      <styleUrl>#icon-1899-0288D1-nodesc</styleUrl>
      <Point>
        <coordinates>
          21.6268408,48.9092638,0
        </coordinates>
      </Point>
    </Placemark>
    <Placemark>
      <name>Sečovská Polianka</name>
      <styleUrl>#icon-1899-0288D1-nodesc</styleUrl>
      <Point>
        <coordinates>
          21.6805313,48.7861116,0
        </coordinates>
      </Point>
    </Placemark>
  </Document>
</kml>
