{
"type": "FeatureCollection",
"name": "MYJAVSKÁ OBLASŤ",
"crs": { "type": "name", "properties": { "name": "urn:ogc:def:crs:OGC:1.3:CRS84" } },
"features": [
{ "type": "Feature", "properties": { "Name": "presné hranice regiónu", "description": null, "tessellate": -1 }, "geometry": { "type": "Polygon", "coordinates": [ [ [ 17.3849346, 48.7653464 ], [ 17.3866444, 48.7534908 ], [ 17.3801213, 48.7318175 ], [ 17.3971229, 48.7171003 ], [ 17.4087964, 48.7142838 ], [ 17.428929, 48.7170607 ], [ 17.445182, 48.7145085 ], [ 17.4590855, 48.7103001 ], [ 17.4671488, 48.7046549 ], [ 17.4662025, 48.6973759 ], [ 17.4751486, 48.6937638 ], [ 17.4799354, 48.6896707 ], [ 17.4747856, 48.6833244 ], [ 17.4797646, 48.6820483 ], [ 17.4864195, 48.6721633 ], [ 17.5027913, 48.6638217 ], [ 17.5137536, 48.6423647 ], [ 17.5329796, 48.6271633 ], [ 17.5482908, 48.6378889 ], [ 17.562367, 48.6431067 ], [ 17.5733533, 48.640271 ], [ 17.5761891, 48.6346709 ], [ 17.5891921, 48.6376337 ], [ 17.6012942, 48.6410934 ], [ 17.6184303, 48.6389292 ], [ 17.6422173, 48.63744 ], [ 17.6595732, 48.6376337 ], [ 17.6713321, 48.6387681 ], [ 17.6822647, 48.6396276 ], [ 17.6991447, 48.6392721 ], [ 17.6985794, 48.6462723 ], [ 17.7036341, 48.6525554 ], [ 17.698812, 48.6579664 ], [ 17.6977679, 48.6654182 ], [ 17.6982995, 48.6720949 ], [ 17.707734, 48.6823378 ], [ 17.716994, 48.6869547 ], [ 17.7201858, 48.6933339 ], [ 17.7238604, 48.6971531 ], [ 17.7272937, 48.7003254 ], [ 17.7355096, 48.7046835 ], [ 17.7400941, 48.7094246 ], [ 17.7520129, 48.713013 ], [ 17.7500536, 48.7178869 ], [ 17.7602527, 48.7252444 ], [ 17.7921751, 48.7461218 ], [ 17.7856629, 48.7487391 ], [ 17.780094, 48.7535506 ], [ 17.7798155, 48.761061 ], [ 17.7805022, 48.7660398 ], [ 17.7839354, 48.771018 ], [ 17.7931626, 48.7759368 ], [ 17.7993899, 48.7784164 ], [ 17.8070458, 48.7851872 ], [ 17.787991, 48.8000021 ], [ 17.7616038, 48.8116586 ], [ 17.7386511, 48.8258072 ], [ 17.7195154, 48.8348909 ], [ 17.71145, 48.8453771 ], [ 17.6959937, 48.8518888 ], [ 17.6877313, 48.8594929 ], [ 17.6279156, 48.8480174 ], [ 17.5215244, 48.8087384 ], [ 17.4484111, 48.8444286 ], [ 17.3956369, 48.8117934 ], [ 17.390876, 48.794174 ], [ 17.3808642, 48.7937784 ], [ 17.3758885, 48.7891946 ], [ 17.3634461, 48.7859975 ], [ 17.3547154, 48.7792884 ], [ 17.3567754, 48.7763473 ], [ 17.36339, 48.7764637 ], [ 17.369564, 48.768309 ], [ 17.3794879, 48.7741814 ], [ 17.3849346, 48.7653464 ] ] ] } },
{ "type": "Feature", "properties": { "Name": "Chvojnica...", "description": null, "tessellate": -1 }, "geometry": { "type": "Point", "coordinates": [ 17.409096, 48.799619 ] } },
{ "type": "Feature", "properties": { "Name": "ŠTÁTNA HRANICA", "description": null, "tessellate": -1 }, "geometry": { "type": "Point", "coordinates": [ 17.628216, 48.830844 ] } },
{ "type": "Feature", "properties": { "Name": "...Lubina", "description": null, "tessellate": -1 }, "geometry": { "type": "Point", "coordinates": [ 17.735763, 48.784622 ] } },
{ "type": "Feature", "properties": { "Name": "Bzince p\/J", "description": null, "tessellate": -1 }, "geometry": { "type": "Point", "coordinates": [ 17.770954, 48.787223 ] } },
{ "type": "Feature", "properties": { "Name": "Višňové", "description": null, "tessellate": -1 }, "geometry": { "type": "Point", "coordinates": [ 17.751212, 48.725928 ] } },
{ "type": "Feature", "properties": { "Name": "Hrachovište", "description": null, "tessellate": -1 }, "geometry": { "type": "Point", "coordinates": [ 17.728038, 48.714036 ] } },
{ "type": "Feature", "properties": { "Name": "Krajné", "description": null, "tessellate": -1 }, "geometry": { "type": "Point", "coordinates": [ 17.685567, 48.703108 ] } },
{ "type": "Feature", "properties": { "Name": "Prašník", "description": null, "tessellate": -1 }, "geometry": { "type": "Point", "coordinates": [ 17.687455, 48.651875 ] } },
{ "type": "Feature", "properties": { "Name": "Košariská", "description": null, "tessellate": -1 }, "geometry": { "type": "Point", "coordinates": [ 17.598019, 48.67081 ] } },
{ "type": "Feature", "properties": { "Name": "Brezová p\/B", "description": null, "tessellate": -1 }, "geometry": { "type": "Point", "coordinates": [ 17.537574, 48.665128 ] } },
{ "type": "Feature", "properties": { "Name": "Bukovec", "description": null, "tessellate": -1 }, "geometry": { "type": "Point", "coordinates": [ 17.498114, 48.699221 ] } },
{ "type": "Feature", "properties": { "Name": "Podbranč", "description": null, "tessellate": -1 }, "geometry": { "type": "Point", "coordinates": [ 17.443182, 48.729123 ] } },
{ "type": "Feature", "properties": { "Name": "Sobotište", "description": null, "tessellate": -1 }, "geometry": { "type": "Point", "coordinates": [ 17.404043, 48.731614 ] } },
{ "type": "Feature", "properties": { "Name": "čiaru viesť presne podľa štátnej hranice", "description": null, "tessellate": 1 }, "geometry": { "type": "LineString", "coordinates": [ [ 17.6833046, 48.8754002 ], [ 17.2960365, 48.8410664 ] ] } },
{ "type": "Feature", "properties": { "Name": "Myjava", "description": null, "tessellate": -1 }, "geometry": { "type": "Point", "coordinates": [ 17.5674635, 48.7552968 ] } },
{ "type": "Feature", "properties": { "Name": "Senica", "description": null, "tessellate": -1 }, "geometry": { "type": "Point", "coordinates": [ 17.3610002, 48.6798645 ] } }
]
}
